[
  {
    "slug": "kyiv",
    "uk": "Київ",
    "ru": "Киев",
    "region": "UA-30",
    "active": true,
    "isPrimary": true,
    "phone": "+380 44 000-00-00",
    "phone0800": "0 800 000-000",
    "address": "вул. Хрещатик, 1, Київ",
    "addressRu": "ул. Крещатик, 1, Киев",
    "coordinates": { "lat": 50.4501, "lon": 30.5234 },
    "priceModifier": 1.0,
    "landmarks": ["ЖК Файна Таун", "ЖК Комфорт Таун", "ЖК Rybalsky"],
    "officeHours": "Пн-Сб 9:00-20:00"
  },
  {
    "slug": "dnipro",
    "uk": "Дніпро",
    "ru": "Днепр",
    "region": "UA-12",
    "active": true,
    "phone": "+380 56 000-00-00",
    "address": "просп. Яворницького, 1, Дніпро",
    "addressRu": "просп. Яворницкого, 1, Днепр",
    "coordinates": { "lat": 48.4647, "lon": 35.0462 },
    "priceModifier": 0.9,
    "landmarks": ["ЖК Салют", "ЖК Panorama City"],
    "officeHours": "Пн-Сб 9:00-19:00"
  },
  {
    "slug": "kharkiv",
    "uk": "Харків",
    "ru": "Харьков",
    "region": "UA-63",
    "active": true,
    "phone": "+380 57 000-00-00",
    "address": "пл. Свободи, 1, Харків",
    "addressRu": "пл. Свободы, 1, Харьков",
    "coordinates": { "lat": 49.9935, "lon": 36.2304 },
    "priceModifier": 0.88,
    "landmarks": ["ЖК Журавлі", "ЖК Нові Будинки"],
    "officeHours": "Пн-Сб 9:00-19:00"
  },
  {
    "slug": "lviv",
    "uk": "Львів",
    "ru": "Львов",
    "region": "UA-46",
    "active": true,
    "phone": "+380 32 000-00-00",
    "address": "пл. Ринок, 1, Львів",
    "addressRu": "пл. Рынок, 1, Львов",
    "coordinates": { "lat": 49.8397, "lon": 24.0297 },
    "priceModifier": 0.95,
    "landmarks": ["ЖК Пасічний", "ЖК Синергія Сіті"],
    "officeHours": "Пн-Сб 9:00-19:00"
  },
  {
    "slug": "odesa",
    "uk": "Одеса",
    "ru": "Одесса",
    "region": "UA-51",
    "active": true,
    "phone": "+380 48 000-00-00",
    "address": "Дерибасівська, 1, Одеса",
    "addressRu": "Дерибасовская, 1, Одесса",
    "coordinates": { "lat": 46.4825, "lon": 30.7233 },
    "priceModifier": 0.92,
    "landmarks": ["ЖК Аркадия Хиллс", "ЖК Французский Бульвар"],
    "officeHours": "Пн-Сб 9:00-19:00"
  },
  {
    "slug": "zaporizhzhia",
    "uk": "Запоріжжя",
    "ru": "Запорожье",
    "region": "UA-23",
    "active": true,
    "phone": "+380 61 000-00-00",
    "address": "просп. Соборний, 1, Запоріжжя",
    "addressRu": "просп. Соборный, 1, Запорожье",
    "coordinates": { "lat": 47.8388, "lon": 35.1396 },
    "priceModifier": 0.9,
    "landmarks": ["ЖК Славутич", "ЖК Левада Парк"],
    "officeHours": "Пн-Сб 9:00-19:00"
  }
]
